[
  {
    "city_name":"Mont Saint Michel",
    "city_id":1,
    "latitude":"48.6359541",
    "longitude":"-1.5114600"
  },
  {
    "city_name":"St Malo",
    "city_id":2,
    "latitude":"48.6495180",
    "longitude":"-2.0260409"
  },
  {
    "city_name":"Bayeux",
    "city_id":3,
    "latitude":"49.2764624",
    "longitude":"-0.7024738"
  },
  {
    "city_name":"Le Havre",
    "city_id":4,
    "latitude":"49.4938975",
    "longitude":"0.1079732"
  },
  {
    "city_name":"Rouen",
    "city_id":5,
    "latitude":"49.4404591",
    "longitude":"1.0939658"
  },
  {
    "city_name":"Paris",
    "city_id":6,
    "latitude":"48.8534951",
    "longitude":"2.3483915"
  },
  {
    "city_name":"Amiens",
    "city_id":7,
    "latitude":"49.8941708",
    "longitude":"2.2956951"
  },
  {
    "city_name":"Lille",
    "city_id":8,
    "latitude":"50.6365654",
    "longitude":"3.0635282"
  },
  {
    "city_name":"Strasbourg",
    "city_id":9,
    "latitude":"48.5846140",
    "longitude":"7.7507127"
  },
  {
    "city_name":"Chateau du Haut Koenigsbourg",
    "city_id":10,
    "latitude":"48.2494107",
    "longitude":"7.3443202"
  },
  {
    "city_name":"Colmar",
    "city_id":11,
    "latitude":"48.0777517",
    "longitude":"7.3579641"
  },
  {
    "city_name":"Eguisheim",
    "city_id":12,
    "latitude":"48.0447968",
    "longitude":"7.3079618"
  },
  {
    "city_name":"Besancon",
    "city_id":13,
    "latitude":"47.2380222",
    "longitude":"6.0243622"
  },
  {
    "city_name":"Dijon",
    "city_id":14,
    "latitude":"47.3215806",
    "longitude":"5.0414701"
  },
  {
    "city_name":"Annecy",
    "city_id":15,
    "latitude":"45.8992348",
    "longitude":"6.1288847"
  },
  {
    "city_name":"Grenoble",
    "city_id":16,
    "latitude":"45.1875602",
    "longitude":"5.7357819"
  },
  {
    "city_name":"Lyon",
    "city_id":17,
    "latitude":"45.7578137",
    "longitude":"4.8320114"
  },
  {
    "city_name":"Gorges du Verdon",
    "city_id":18,
    "latitude":"43.7496562",
    "longitude":"6.3285616"
  },
  {
    "city_name":"Bormes les Mimosas",
    "city_id":19,
    "latitude":"43.1506968",
    "longitude":"6.3419285"
  },
  {
    "city_name":"Cassis",
    "city_id":20,
    "latitude":"43.2140359",
    "longitude":"5.5396318"
  },
  {
    "city_name":"Marseille",
    "city_id":21,
    "latitude":"43.2961743",
    "longitude":"5.3699525"
  },
  {
    "city_name":"Aix en Provence",
    "city_id":22,
    "latitude":"43.5298424",
    "longitude":"5.4474738"
  },
  {
    "city_name":"Avignon",
    "city_id":23,
    "latitude":"43.9492493",
    "longitude":"4.8059012"
  },
  {
    "city_name":"Uzes",
    "city_id":24,
    "latitude":"44.0121279",
    "longitude":"4.4196718"
  },
  {
    "city_name":"Nimes",
    "city_id":25,
    "latitude":"43.8374249",
    "longitude":"4.3600687"
  },
  {
    "city_name":"Aigues Mortes",
    "city_id":26,
    "latitude":"43.5661521",
    "longitude":"4.1915400"
  },
  {
    "city_name":"Saintes Maries de la mer",
    "city_id":27,
    "latitude":"43.4515922",
    "longitude":"4.4277202"
  },
  {
    "city_name":"Collioure",
    "city_id":28,
    "latitude":"42.5250500",
    "longitude":"3.0831554"
  },
  {
    "city_name":"Carcassonne",
    "city_id":29,
    "latitude":"43.2130358",
    "longitude":"2.3491069"
  },
  {
    "city_name":"Ariege",
    "city_id":30,
    "latitude":"42.9455368",
    "longitude":"1.4065544"
  },
  {
    "city_name":"Toulouse",
    "city_id":31,
    "latitude":"43.6044622",
    "longitude":"1.4442469"
  },
  {
    "city_name":"Montauban",
    "city_id":32,
    "latitude":"44.0175835",
    "longitude":"1.3549991"
  },
  {
    "city_name":"Biarritz",
    "city_id":33,
    "latitude":"43.4711437",
    "longitude":"-1.5527266"
  },
  {
    "city_name":"Bayonne",
    "city_id":34,
    "latitude":"43.4945144",
    "longitude":"-1.4736657"
  },
  {
    "city_name":"La Rochelle",
    "city_id":35,
    "latitude":"46.1597320",
    "longitude":"-1.1515951"
  }
]